{
      "petHospital":[
         {
            "name":"문현 동물병원",
            "location":"부산광역시 남구 수영로 38(문현동)",
            "phone":"051-634-4017"
         },
         {
            "name":"용호 동물병원",
            "location":"부산광역시 남구 용호로123번길 5(용호동)",
            "phone":"051-628-0855"
         },
         {
            "name":"우암 동물병원",
            "location":"부산광역시 남구 석포로7(감만동) 자유4차@상가동 105,108,109호",
            "phone":"051-636-5242"
         },
         {
            "name":"25시 동물병원",
            "location":"부산광역시 남구 수영로 34(문현동)",
            "phone":"051-635-0402"
         },
         {
            "name":"튼튼 동물병원",
            "location":"부산광역시 남구 수영로 332(대연동)",
            "phone":"051-621-7555"
         },
         {
            "name":"메트로 동물병원",
            "location":"부산광역시 남구 용호로 20(용호동)",
            "phone":"051-623-7588"
         },
         {
            "name":"조양래 동물의료센터",
            "location":"부산광역시 남구 수영로 224-1(대연동)",
            "phone":"051-621-8880"
         },
         {
            "name":"(주)다솜 동물병원",
            "location":"부산광역시 남구 수영로13번길 3(문현동)",
            "phone":"051-632-7580"
         },
         {
            "name":"다솜고양이메디컬센터",
            "location":"부산광역시 남구 수영로 13번길3(문현동) 2층",
            "phone":"051-636-7582"
         },
         {
            "name":"펫프랜즈 동물병원",
            "location":"부산광역시 남구 전포대로 91번길 47(문현동, 이마트 3층)",
            "phone":"051-636-0148"
         },
         {
            "name":"대연 동물병원",
            "location":"부산광역시 남구 수영로 159(대연동)",
            "phone":"051-647-2758"
         },
         {
            "name":"봄빛동물종합병원",
            "location":"부산광역시 남구 용호로 48(용호동) 대성빌딩 2층",
            "phone":"051-612-2289"
         },
         {
            "name":"자이안트동물병원",
            "location":"부산광역시 남구 분포로 111 (용호동) LG메트로시티 상가 1003동 304호",
            "phone":"051-646-7582"
         },
         {
            "name":"해온동물병원",
            "location":"부산광역시 남구 용호로 233(용호동)",
            "phone":"051-612-7552"
         },
         {
            "name":"지경희동물병원",
            "location":"부산광역시 남구 용호로 199(용호동)",
            "phone":"051-714-0220"
         },
         {
            "name":"헬로동물병원",
            "location":"부산광역시 남구 분포로 115 힐탑탑플레이스 A동 403호(용호동)",
            "phone":"051-627-1275"
         },
         {
            "name":"다온 동물병원",
            "location":"부산광역시 남구 수영로 345, 115동 206호(대연동, 대연힐스테이트 푸르지오)",
            "phone":"051-622-2171"
         },
         {
            "name":"유앤동물의료센터",
            "location":"부산광역시 남구 수영로 221(대연동)",
            "phone":"051-624-2475"
         },
         {
            "name":"덕천동물병원",
            "location":"부산광역시 북구 만덕대로 88 (덕천동)",
            "phone":"051-332-8060"
         },
         {
            "name":"구포동물병원",
            "location":"부산광역시 북구 낙동대로 1648-1 (구포동)",
            "phone":"051-332-5688"
         },
         {
            "name":"백양동물병원",
            "location":"부산광역시 북구 덕천로 280 (만덕동)",
            "phone":"051-342-0010"
         },
         {
            "name":"노아동물병원",
            "location":"부산광역시 북구 금곡대로 175, 상가207동 201호 (화명동, 화명2차동원로얄듀크)",
            "phone":"051-343-7588"
         },
         {
            "name":"원동물병원",
            "location":"부산광역시 북구 금곡대로 287 (화명동)",
            "phone":"051-333-7584"
         },
         {
            "name":"21세기종합동물병원",
            "location":"부산광역시 북구 만덕대로 34 (덕천동)",
            "phone":"051-365-0075"
         },
         {
            "name":"장원동물병원",
            "location":"부산광역시 북구 시랑로 1 (구포동)",
            "phone":"051-335-9023"
         },
         {
            "name":"차동물병원",
            "location":"부산광역시 북구 금곡대로 304 (화명동)",
            "phone":"051-331-7582"
         },
         {
            "name":"행복한동물병원",
            "location":"부산광역시 북구 금곡대로 344 (화명동,화명빌딩202호)",
            "phone":"051-363-7593"
         },
         {
            "name":"화명동물병원",
            "location":"부산광역시 북구 금곡대로 238 (화명동, 롯데캐슬상가 120호)",
            "phone":"051-364-4386"
         },
         {
            "name":"만덕24시동물병원",
            "location":"부산광역시 북구 덕천로 227 (만덕동)",
            "phone":"051-704-3690"
         },
         {
            "name":"카이저 동물병원",
            "location":"부산광역시 북구 금곡대로 182 (화명동)",
            "phone":"051-361-7599"
         },
         {
            "name":"그랜드 동물병원",
            "location":"부산광역시 북구 학사로 299, 2층 (금곡동)",
            "phone":"051-365-7588"
         },
         {
            "name":"하나동물병원",
            "location":"부산광역시 북구 금곡대로 469 (금곡동)",
            "phone":"051-337-0975"
         },
         {
            "name":"해든동물병원",
            "location":"부산광역시 북구 백양대로 1053 (구포동)",
            "phone":"051-343-3834"
         },
         {
            "name":"사상동물병원",
            "location":"부산광역시 사상구 사상로 153 (괘법동)",
            "phone":"051-322-3026"
         },
         {
            "name":"주례동물병원",
            "location":"부산광역시 사상구 가야대로 258 (주례동)",
            "phone":"051-313-2559"
         },
         {
            "name":"신병헌동물병원",
            "location":"부산광역시 사상구 사상로 261 (덕포동)",
            "phone":"051-304-6455"
         },
         {
            "name":"모라동물병원",
            "location":"부산광역시 사상구 백양대로 957 (모라동)",
            "phone":"051-325-1638"
         },
         {
            "name":"대성동물병원",
            "location":"부산광역시 사상구 주례로10번길 125 (주례동)",
            "phone":"051-317-7558"
         },
         {
            "name":"개금동물병원",
            "location":"부산광역시 사상구 가야대로 367 (주례동)",
            "phone":"051-324-9954"
         },
         {
            "name":"엄궁종합동물병원",
            "location":"부산광역시 사상구 대동로 12 (엄궁동)",
            "phone":"051-316-7596"
         },
         {
            "name":"쿨펫동물병원",
            "location":"부산광역시 사상구 광장로 17 (괘법동)",
            "phone":"051-312-7575"
         },
         {
            "name":"고은동물병원",
            "location":"부산광역시 사상구 모라로 107 (모라동)",
            "phone":"051-311-7578"
         },
         {
            "name":"쿨펫동물병원",
            "location":"부산광역시 사상구 엄궁동 롯데쇼핑(주)롯데마트사상 2층",
            "phone":"051-266-5582"
         },
         {
            "name":"학장동물병원",
            "location":"부산광역시 사상구 대동로 129 (학장동)",
            "phone":"051-312-7555"
         },
         {
            "name":"사하종합동물병원",
            "location":"부산광역시 사하구 낙동대로 356 (당리동)",
            "phone":"null"
         },
         {
            "name":"박 동물병원",
            "location":"부산광역시 사하구 낙동대로 407 (당리동)",
            "phone":"051-202-4964"
         },
         {
            "name":"염동물병원",
            "location":"부산광역시 사하구 사하로142번길 10 (괴정동)",
            "phone":"051-292-3690"
         },
         {
            "name":"나은 동물병원",
            "location":"부산광역시 사하구 다대로 254 (장림동)",
            "phone":"051-264-7584"
         },
         {
            "name":"참조은 동물병원",
            "location":"부산광역시 사하구 낙동대로 295-1 (괴정동)",
            "phone":"null"
         },
         {
            "name":"장 동물병원",
            "location":"부산광역시 사하구 윤공단로56번길 55 (다대동)",
            "phone":"null"
         },
         {
            "name":"하단동물병원",
            "location":"부산광역시 사하구 하신중앙로 296 (하단동)",
            "phone":"051-291-4456"
         },
         {
            "name":"예원동물병원",
            "location":"부산광역시 사하구 다송로72번길 63 (다대동)",
            "phone":"null"
         },
         {
            "name":"쿨펫 동물병원",
            "location":"부산광역시 사하구 을숙도대로 610 (장림동)",
            "phone":"null"
         },
         {
            "name":"한솔동물병원",
            "location":"부산광역시 사하구 낙동대로 184 (괴정동)",
            "phone":"051-201-0475"
         },
         {
            "name":"스마트동물병원",
            "location":"부산광역시 사하구 다대로 624 (다대동)",
            "phone":"null"
         },
         {
            "name":"다대동물병원",
            "location":"부산광역시 사하구 다대로 549 (다대동)",
            "phone":"null"
         },
         {
            "name":"괴정동물병원",
            "location":"부산광역시 사하구 낙동대로250번안길 15 (괴정동)",
            "phone":"null"
         },
         {
            "name":"부산야생동물치료센터",
            "location":"부산광역시 사하구 낙동남로 1240 (하단동)",
            "phone":"null"
         },
         {
            "name":"신성동물병원",
            "location":"부산광역시 사하구 낙동대로 194 (괴정동)",
            "phone":"null"
         },
         {
            "name":"삼성종합동물병원",
            "location":"부산광역시 사하구 감천로 32 (감천동)",
            "phone":"null"
         },
         {
            "name":"라온동물병원",
            "location":"부산광역시 사하구 낙동대로 511 (하단동)",
            "phone":"null"
         },
         {
            "name":"김현태동물병원",
            "location":"부산광역시 사하구 다송로 36 (다대동)",
            "phone":"null"
         },
         {
            "name":"코끼리동물병원",
            "location":"부산광역시 사하구 하신번영로 201 (신평동)",
            "phone":"null"
         },
         {
            "name":"현대동물병원",
            "location":"부산광역시 사하구 다대로 473, 제1상가동 3층 (다대동, 현대아파트)",
            "phone":"null"
         },
         {
            "name":"대호동물병원",
            "location":"부산광역시 서구 구덕로 130 (토성동5가, 해오름상가1층)",
            "phone":"051-256-1188"
         },
         {
            "name":"대신동물병원",
            "location":"부산광역시 서구 망양로 19-1 (서대신동3가)",
            "phone":"051-254-2304"
         },
         {
            "name":"길경진동물병원",
            "location":"부산광역시 서구 구덕로 308 (동대신동2가)",
            "phone":"051-244-5504"
         },
         {
            "name":"우리들 동물병원",
            "location":"부산광역시 서구 구덕로 135, 101호 (토성동5가,아크로폴리스)",
            "phone":"051-245-7975"
         },
         {
            "name":"만박동물병원",
            "location":"부산광역시 서구 까치고개로 257, 1층 (토성동1가)",
            "phone":"051-254-7744"
         },
         {
            "name":"MS동물병원",
            "location":"부산광역시 연제구 과정로 354 (연산동)",
            "phone":"051-868-6631"
         },
         {
            "name":"거제동물병원",
            "location":"부산광역시 연제구 거제대로 146 (거제동)",
            "phone":"051-862-8668"
         },
         {
            "name":"도그플러스동물병원(아시아드점)",
            "location":"부산광역시 연제구 종합운동장로 7 (거제동)",
            "phone":"051-506-8492"
         },
         {
            "name":"라이프 동물병원",
            "location":"부산광역시 연제구 중앙대로 1159 (연산동,남일아파트 A-110)",
            "phone":"051-853-7588"
         },
         {
            "name":"망미동물병원",
            "location":"부산광역시 연제구 과정로 84 (연산동)",
            "phone":"051-753-7580"
         },
         {
            "name":"부산동물메디컬센터",
            "location":"부산광역시 연제구 거제대로 278 (거제동)",
            "phone":"051-868-7591"
         },
         {
            "name":"아시아드 동물병원",
            "location":"부산광역시 연제구 아시아드대로 83 (거제동)",
            "phone":"051-504-0079"
         },
         {
            "name":"양지동물병원",
            "location":"부산광역시 연제구 월드컵대로114번길 1 (연산동)",
            "phone":"051-867-5595"
         },
         {
            "name":"올리브 동물병원",
            "location":"부산광역시 연제구 연안로 13 (연산동)",
            "phone":"051-751-7502"
         },
         {
            "name":"준동물병원",
            "location":"부산광역시 연제구 반송로 48 (연산동)",
            "phone":"051-867-7532"
         },
         {
            "name":"청조동물병원",
            "location":"부산광역시 연제구 온천천남로 4 (연산동)",
            "phone":"051-503-0688"
         },
         {
            "name":"쿨펫동물병원",
            "location":"부산광역시 연제구 연수로 89 (연산동)",
            "phone":"051-853-0041"
         },
         {
            "name":"토곡동물병원",
            "location":"부산광역시 연제구 과정로 234-1 (연산동)",
            "phone":"051-759-8669"
         },
         {
            "name":"피정현 동물병원",
            "location":"부산광역시 연제구 거제천로 232-1 (연산동)",
            "phone":"051-864-7582"
         },
         {
            "name":"현대동물병원",
            "location":"부산광역시 연제구 과정로 171-1 (연산동)",
            "phone":"051-755-4765"
         },
         {
            "name":"영도동물병원",
            "location":"부산광역시 영도구 태종로111(영선동1가)",
            "phone":"051-415-2566"
         },
         {
            "name":"태종동물병원",
            "location":"부산광역시 영도구 동삼로80(동삼동)",
            "phone":"051-504-9493"
         },
         {
            "name":"센트럴종합동물병원",
            "location":"부산광역시 영도구 태종로78(대교동1가)",
            "phone":"051-415-2468"
         },
         {
            "name":"천동물병원",
            "location":"부산광역시 영도구 태종로430(상가동 201호)",
            "phone":"051-414-7588"
         },
         {
            "name":"엘리자베스동물병원",
            "location":"부산광역시 영도구 대교로 15(봉래동2가)",
            "phone":"051-414-7686"
         },
         {
            "name":"고동물병원",
            "location":"부산광역시 중구 자갈치로47번길 5 (남포동5가)",
            "phone":"051-246-0473"
         },
         {
            "name":"희망종합동물병원",
            "location":"부산광역시 중구 구덕로 51, 2층 (남포동5가)",
            "phone":"051-241-0103"
         },
         {
            "name":"피닉스동물병원",
            "location":"부산광역시 중구 구덕로 30-1 (남포동2가)",
            "phone":"051-246-7551"
         },
         {
            "name":"펫가든동물병원",
            "location":"부산광역시 중구 중앙대로 2 (중앙동7가)",
            "phone":"051-462-8559"
         }
      ]
}
